{
  "fetched_at": "2026-07-07T13:50:29.145551+00:00",
  "source": "OpenStreetMap Overpass API",
  "boundary": "Hot Springs, AR city limits (admin_level=8)",
  "boundary_relation_id": 130675,
  "element_count": 67,
  "church_count": 66,
  "skipped_non_christian": 1,
  "bbox": {
    "min_lat": 34.4637499,
    "max_lat": 47.6096678,
    "min_lon": -114.6773539,
    "max_lon": -82.8270981
  },
  "churches": [
    {
      "osm_id": 357978411,
      "osm_type": "node",
      "name": "Hot Springs Church",
      "denomination_raw": "seventh_day_adventist",
      "religion": "christian",
      "addr_housenumber": "301",
      "addr_street": "Demers Street",
      "addr_city": "Hot Springs",
      "address": "301 Demers Street",
      "lat": 47.6070705,
      "lon": -114.6744851,
      "start_date": "",
      "website": "https://hotspringsmt.adventistchurch.org/",
      "phone": "+1 406 741 2177",
      "opening_hours": "",
      "building": "",
      "wikidata": ""
    },
    {
      "osm_id": 357978415,
      "osm_type": "node",
      "name": "First Presbyterian Church",
      "denomination_raw": "presbyterian",
      "religion": "christian",
      "addr_housenumber": "",
      "addr_street": "",
      "addr_city": "",
      "address": "",
      "lat": 47.6057707,
      "lon": -114.670408,
      "start_date": "",
      "website": "",
      "phone": "",
      "opening_hours": "",
      "building": "",
      "wikidata": ""
    },
    {
      "osm_id": 358970460,
      "osm_type": "node",
      "name": "East Side Church",
      "denomination_raw": "",
      "religion": "christian",
      "addr_housenumber": "",
      "addr_street": "",
      "addr_city": "",
      "address": "",
      "lat": 34.5142561,
      "lon": -93.036012,
      "start_date": "",
      "website": "",
      "phone": "",
      "opening_hours": "",
      "building": "",
      "wikidata": ""
    },
    {
      "osm_id": 358972719,
      "osm_type": "node",
      "name": "Hillcrest Chapel",
      "denomination_raw": "",
      "religion": "christian",
      "addr_housenumber": "",
      "addr_street": "",
      "addr_city": "",
      "address": "",
      "lat": 34.4728673,
      "lon": -93.0196219,
      "start_date": "",
      "website": "",
      "phone": "",
      "opening_hours": "",
      "building": "",
      "wikidata": ""
    },
    {
      "osm_id": 358974154,
      "osm_type": "node",
      "name": "Lakeshore Church",
      "denomination_raw": "",
      "religion": "christian",
      "addr_housenumber": "1420",
      "addr_street": "Lakeshore Drive",
      "addr_city": "Hot Springs",
      "address": "1420 Lakeshore Drive",
      "lat": 34.4706452,
      "lon": -93.0679573,
      "start_date": "",
      "website": "",
      "phone": "",
      "opening_hours": "",
      "building": "",
      "wikidata": ""
    },
    {
      "osm_id": 358979486,
      "osm_type": "node",
      "name": "Rose of Sharon Church",
      "denomination_raw": "",
      "religion": "christian",
      "addr_housenumber": "",
      "addr_street": "",
      "addr_city": "",
      "address": "",
      "lat": 34.477034,
      "lon": -93.1096258,
      "start_date": "",
      "website": "",
      "phone": "",
      "opening_hours": "",
      "building": "",
      "wikidata": ""
    },
    {
      "osm_id": 358981733,
      "osm_type": "node",
      "name": "The Old Country Church",
      "denomination_raw": "",
      "religion": "christian",
      "addr_housenumber": "",
      "addr_street": "",
      "addr_city": "",
      "address": "",
      "lat": 34.5109227,
      "lon": -93.0140666,
      "start_date": "",
      "website": "",
      "phone": "",
      "opening_hours": "",
      "building": "",
      "wikidata": ""
    },
    {
      "osm_id": 358997038,
      "osm_type": "node",
      "name": "Park Place Baptist Church",
      "denomination_raw": "baptist",
      "religion": "christian",
      "addr_housenumber": "",
      "addr_street": "",
      "addr_city": "",
      "address": "",
      "lat": 34.5177628,
      "lon": -93.0554565,
      "start_date": "",
      "website": "",
      "phone": "",
      "opening_hours": "",
      "building": "",
      "wikidata": ""
    },
    {
      "osm_id": 358997043,
      "osm_type": "node",
      "name": "Saint Lukes Episcopal Church",
      "denomination_raw": "",
      "religion": "christian",
      "addr_housenumber": "228",
      "addr_street": "Spring Street",
      "addr_city": "Hot Springs",
      "address": "228 Spring Street",
      "lat": 34.5104808,
      "lon": -93.0519579,
      "start_date": "",
      "website": "https://www.stlukeshs.org/",
      "phone": "+1 501-623-1653",
      "opening_hours": "",
      "building": "",
      "wikidata": ""
    },
    {
      "osm_id": 359012619,
      "osm_type": "node",
      "name": "Mount Tabor Baptist Church",
      "denomination_raw": "baptist",
      "religion": "christian",
      "addr_housenumber": "",
      "addr_street": "",
      "addr_city": "",
      "address": "",
      "lat": 34.4945682,
      "lon": -93.1109884,
      "start_date": "",
      "website": "",
      "phone": "",
      "opening_hours": "",
      "building": "",
      "wikidata": ""
    },
    {
      "osm_id": 359023372,
      "osm_type": "node",
      "name": "Central Baptist Church",
      "denomination_raw": "baptist",
      "religion": "christian",
      "addr_housenumber": "1035",
      "addr_street": "Central Avenue",
      "addr_city": "Hot Springs",
      "address": "1035 Central Avenue",
      "lat": 34.5053694,
      "lon": -93.0546274,
      "start_date": "",
      "website": "https://www.centralbaptisthotsprings.net/",
      "phone": "",
      "opening_hours": "",
      "building": "",
      "wikidata": ""
    },
    {
      "osm_id": 359023377,
      "osm_type": "node",
      "name": "Church of Christ",
      "denomination_raw": "",
      "religion": "christian",
      "addr_housenumber": "",
      "addr_street": "",
      "addr_city": "",
      "address": "",
      "lat": 34.5034205,
      "lon": -93.0590692,
      "start_date": "",
      "website": "",
      "phone": "",
      "opening_hours": "",
      "building": "",
      "wikidata": ""
    },
    {
      "osm_id": 359023380,
      "osm_type": "node",
      "name": "Church of Christ",
      "denomination_raw": "",
      "religion": "christian",
      "addr_housenumber": "",
      "addr_street": "",
      "addr_city": "",
      "address": "",
      "lat": 34.5084226,
      "lon": -93.0415678,
      "start_date": "",
      "website": "",
      "phone": "",
      "opening_hours": "",
      "building": "",
      "wikidata": ""
    },
    {
      "osm_id": 359023384,
      "osm_type": "node",
      "name": "Church of God",
      "denomination_raw": "",
      "religion": "christian",
      "addr_housenumber": "",
      "addr_street": "",
      "addr_city": "",
      "address": "",
      "lat": 34.485645,
      "lon": -93.0643463,
      "start_date": "",
      "website": "",
      "phone": "",
      "opening_hours": "",
      "building": "",
      "wikidata": ""
    },
    {
      "osm_id": 359023402,
      "osm_type": "node",
      "name": "East Side Pentecostal Church",
      "denomination_raw": "pentecostal",
      "religion": "christian",
      "addr_housenumber": "",
      "addr_street": "",
      "addr_city": "",
      "address": "",
      "lat": 34.5123116,
      "lon": -93.0385121,
      "start_date": "",
      "website": "",
      "phone": "",
      "opening_hours": "",
      "building": "",
      "wikidata": ""
    },
    {
      "osm_id": 359023405,
      "osm_type": "node",
      "name": "First Baptist Church",
      "denomination_raw": "baptist",
      "religion": "christian",
      "addr_housenumber": "",
      "addr_street": "",
      "addr_city": "",
      "address": "",
      "lat": 34.4878865,
      "lon": -93.0596764,
      "start_date": "",
      "website": "",
      "phone": "",
      "opening_hours": "",
      "building": "",
      "wikidata": ""
    },
    {
      "osm_id": 359023411,
      "osm_type": "node",
      "name": "First Christian Church",
      "denomination_raw": "",
      "religion": "christian",
      "addr_housenumber": "1806",
      "addr_street": "Central Avenue",
      "addr_city": "Hot Springs",
      "address": "1806 Central Avenue",
      "lat": 34.4950945,
      "lon": -93.0582345,
      "start_date": "",
      "website": "https://www.fcchs.org/",
      "phone": "+1 501-623-3389",
      "opening_hours": "",
      "building": "",
      "wikidata": ""
    },
    {
      "osm_id": 359023414,
      "osm_type": "node",
      "name": "First Church of Christ Scientist",
      "denomination_raw": "",
      "religion": "christian",
      "addr_housenumber": "",
      "addr_street": "",
      "addr_city": "",
      "address": "",
      "lat": 34.5056452,
      "lon": -93.0562926,
      "start_date": "",
      "website": "",
      "phone": "",
      "opening_hours": "",
      "building": "",
      "wikidata": ""
    },
    {
      "osm_id": 359023418,
      "osm_type": "node",
      "name": "First Church of God",
      "denomination_raw": "",
      "religion": "christian",
      "addr_housenumber": "",
      "addr_street": "",
      "addr_city": "",
      "address": "",
      "lat": 34.5039789,
      "lon": -93.0562947,
      "start_date": "",
      "website": "",
      "phone": "",
      "opening_hours": "",
      "building": "",
      "wikidata": ""
    },
    {
      "osm_id": 359023422,
      "osm_type": "node",
      "name": "First Free Will Baptist Church",
      "denomination_raw": "baptist",
      "religion": "christian",
      "addr_housenumber": "",
      "addr_street": "",
      "addr_city": "",
      "address": "",
      "lat": 34.4909227,
      "lon": -93.0685132,
      "start_date": "",
      "website": "",
      "phone": "",
      "opening_hours": "",
      "building": "",
      "wikidata": ""
    },
    {
      "osm_id": 359023429,
      "osm_type": "node",
      "name": "First Pentecostal Church",
      "denomination_raw": "pentecostal",
      "religion": "christian",
      "addr_housenumber": "",
      "addr_street": "",
      "addr_city": "",
      "address": "",
      "lat": 34.504256,
      "lon": -93.0462902,
      "start_date": "",
      "website": "",
      "phone": "",
      "opening_hours": "",
      "building": "",
      "wikidata": ""
    },
    {
      "osm_id": 359023436,
      "osm_type": "node",
      "name": "Gardner United Methodist Church",
      "denomination_raw": "methodist",
      "religion": "christian",
      "addr_housenumber": "",
      "addr_street": "",
      "addr_city": "",
      "address": "",
      "lat": 34.4900915,
      "lon": -93.0926811,
      "start_date": "",
      "website": "",
      "phone": "",
      "opening_hours": "",
      "building": "",
      "wikidata": ""
    },
    {
      "osm_id": 359023439,
      "osm_type": "node",
      "name": "Grand Avenue United Methodist Church",
      "denomination_raw": "methodist",
      "religion": "christian",
      "addr_housenumber": "841",
      "addr_street": "Quapaw Avenue",
      "addr_city": "Hot Springs",
      "address": "841 Quapaw Avenue",
      "lat": 34.50231,
      "lon": -93.0660215,
      "start_date": "",
      "website": "https://www.gaumch.org/",
      "phone": "+1 501-623-5626",
      "opening_hours": "",
      "building": "",
      "wikidata": ""
    },
    {
      "osm_id": 359023440,
      "osm_type": "node",
      "name": "Highland Presbyterian Church",
      "denomination_raw": "presbyterian",
      "religion": "christian",
      "addr_housenumber": "",
      "addr_street": "",
      "addr_city": "",
      "address": "",
      "lat": 34.4898116,
      "lon": -93.0785136,
      "start_date": "",
      "website": "",
      "phone": "",
      "opening_hours": "",
      "building": "",
      "wikidata": ""
    },
    {
      "osm_id": 359023442,
      "osm_type": "node",
      "name": "Kingdom Hall of Jehovahs Witnesses",
      "denomination_raw": "jehovahs_witness",
      "religion": "christian",
      "addr_housenumber": "",
      "addr_street": "",
      "addr_city": "",
      "address": "",
      "lat": 34.5117576,
      "lon": -93.0399067,
      "start_date": "",
      "website": "",
      "phone": "",
      "opening_hours": "",
      "building": "",
      "wikidata": ""
    },
    {
      "osm_id": 359023443,
      "osm_type": "node",
      "name": "Mount Zion African Methodist Episcopal Church",
      "denomination_raw": "methodist",
      "religion": "christian",
      "addr_housenumber": "",
      "addr_street": "",
      "addr_city": "",
      "address": "",
      "lat": 34.5037004,
      "lon": -93.0451791,
      "start_date": "",
      "website": "",
      "phone": "",
      "opening_hours": "",
      "building": "",
      "wikidata": ""
    },
    {
      "osm_id": 359023446,
      "osm_type": "node",
      "name": "Oaklawn United Methodist Church",
      "denomination_raw": "methodist",
      "religion": "christian",
      "addr_housenumber": "216",
      "addr_street": "Higdon Ferry Road",
      "addr_city": "Hot Springs",
      "address": "216 Higdon Ferry Road",
      "lat": 34.4817591,
      "lon": -93.0607322,
      "start_date": "",
      "website": "https://www.oaklawnmethodist.org/",
      "phone": "",
      "opening_hours": "",
      "building": "",
      "wikidata": ""
    },
    {
      "osm_id": 359023447,
      "osm_type": "node",
      "name": "Prince of Peace Lutheran Church",
      "denomination_raw": "lutheran",
      "religion": "christian",
      "addr_housenumber": "109",
      "addr_street": "Hobson Avenue",
      "addr_city": "Hot Springs",
      "address": "109 Hobson Avenue",
      "lat": 34.4970398,
      "lon": -93.0543464,
      "start_date": "",
      "website": "https://princeofpeacehotsprings.weebly.com/",
      "phone": "+1 501-397-9361",
      "opening_hours": "",
      "building": "",
      "wikidata": ""
    },
    {
      "osm_id": 359023449,
      "osm_type": "node",
      "name": "Pullman Heights United Methodist Church",
      "denomination_raw": "methodist",
      "religion": "christian",
      "addr_housenumber": "200",
      "addr_street": "Pullman Avenue",
      "addr_city": "Hot Springs",
      "address": "200 Pullman Avenue",
      "lat": 34.5320345,
      "lon": -93.0496298,
      "start_date": "",
      "website": "",
      "phone": "",
      "opening_hours": "",
      "building": "",
      "wikidata": ""
    },
    {
      "osm_id": 359023450,
      "osm_type": "node",
      "name": "Roanoke Baptist Church",
      "denomination_raw": "baptist",
      "religion": "christian",
      "addr_housenumber": "",
      "addr_street": "",
      "addr_city": "",
      "address": "",
      "lat": 34.5162005,
      "lon": -93.0593464,
      "start_date": "",
      "website": "",
      "phone": "",
      "opening_hours": "",
      "building": "",
      "wikidata": ""
    },
    {
      "osm_id": 359023460,
      "osm_type": "node",
      "name": "Saint Mary Baptist Church",
      "denomination_raw": "baptist",
      "religion": "christian",
      "addr_housenumber": "",
      "addr_street": "",
      "addr_city": "",
      "address": "",
      "lat": 34.5048115,
      "lon": -93.0396232,
      "start_date": "",
      "website": "",
      "phone": "",
      "opening_hours": "",
      "building": "",
      "wikidata": ""
    },
    {
      "osm_id": 359023461,
      "osm_type": "node",
      "name": "Saint Marys Episcopal Church",
      "denomination_raw": "",
      "religion": "christian",
      "addr_housenumber": "",
      "addr_street": "",
      "addr_city": "",
      "address": "",
      "lat": 34.508427,
      "lon": -93.0501793,
      "start_date": "",
      "website": "",
      "phone": "",
      "opening_hours": "",
      "building": "",
      "wikidata": ""
    },
    {
      "osm_id": 359023463,
      "osm_type": "node",
      "name": "Saint Marys Greek Orthodox Church",
      "denomination_raw": "",
      "religion": "christian",
      "addr_housenumber": "",
      "addr_street": "",
      "addr_city": "",
      "address": "",
      "lat": 34.4948115,
      "lon": -93.0565684,
      "start_date": "",
      "website": "",
      "phone": "",
      "opening_hours": "",
      "building": "",
      "wikidata": ""
    },
    {
      "osm_id": 359023465,
      "osm_type": "node",
      "name": "Saint Paul African Methodist Episcopal Church",
      "denomination_raw": "methodist",
      "religion": "christian",
      "addr_housenumber": "",
      "addr_street": "",
      "addr_city": "",
      "address": "",
      "lat": 34.4998114,
      "lon": -93.0621242,
      "start_date": "",
      "website": "",
      "phone": "",
      "opening_hours": "",
      "building": "",
      "wikidata": ""
    },
    {
      "osm_id": 359023467,
      "osm_type": "node",
      "name": "Second Baptist Church",
      "denomination_raw": "baptist",
      "religion": "christian",
      "addr_housenumber": "",
      "addr_street": "",
      "addr_city": "",
      "address": "",
      "lat": 34.5003251,
      "lon": -93.0651841,
      "start_date": "",
      "website": "",
      "phone": "",
      "opening_hours": "",
      "building": "",
      "wikidata": ""
    },
    {
      "osm_id": 359023468,
      "osm_type": "node",
      "name": "Sharon Seventh-day Adventist Church",
      "denomination_raw": "seventh_day_adventist",
      "religion": "christian",
      "addr_housenumber": "223",
      "addr_street": "Silver Street",
      "addr_city": "Hot Springs",
      "address": "223 Silver Street",
      "lat": 34.5040247,
      "lon": -93.0444982,
      "start_date": "",
      "website": "https://sharon32.adventistchurchconnect.org/",
      "phone": "+1 501 623 6341",
      "opening_hours": "",
      "building": "",
      "wikidata": ""
    },
    {
      "osm_id": 359023470,
      "osm_type": "node",
      "name": "Southwest Missionary Baptist Church",
      "denomination_raw": "baptist",
      "religion": "christian",
      "addr_housenumber": "",
      "addr_street": "",
      "addr_city": "",
      "address": "",
      "lat": 34.4903672,
      "lon": -93.0815694,
      "start_date": "",
      "website": "",
      "phone": "",
      "opening_hours": "",
      "building": "",
      "wikidata": ""
    },
    {
      "osm_id": 359023471,
      "osm_type": "node",
      "name": "Temple Pentecostal Church",
      "denomination_raw": "pentecostal",
      "religion": "christian",
      "addr_housenumber": "",
      "addr_street": "",
      "addr_city": "",
      "address": "",
      "lat": 34.5025893,
      "lon": -93.0521238,
      "start_date": "",
      "website": "",
      "phone": "",
      "opening_hours": "",
      "building": "",
      "wikidata": ""
    },
    {
      "osm_id": 359023472,
      "osm_type": "node",
      "name": "The Gospel Temple",
      "denomination_raw": "",
      "religion": "christian",
      "addr_housenumber": "",
      "addr_street": "",
      "addr_city": "",
      "address": "",
      "lat": 34.5078682,
      "lon": -93.0499047,
      "start_date": "",
      "website": "",
      "phone": "",
      "opening_hours": "",
      "building": "",
      "wikidata": ""
    },
    {
      "osm_id": 359023474,
      "osm_type": "node",
      "name": "Tigert Memorial Methodist Church",
      "denomination_raw": "methodist",
      "religion": "christian",
      "addr_housenumber": "",
      "addr_street": "",
      "addr_city": "",
      "address": "",
      "lat": 34.5134267,
      "lon": -93.0365679,
      "start_date": "",
      "website": "",
      "phone": "",
      "opening_hours": "",
      "building": "",
      "wikidata": ""
    },
    {
      "osm_id": 359023475,
      "osm_type": "node",
      "name": "Union Missionary Baptist Church",
      "denomination_raw": "baptist",
      "religion": "christian",
      "addr_housenumber": "219",
      "addr_street": "Gulpha Street",
      "addr_city": "Hot Springs",
      "address": "219 Gulpha Street",
      "lat": 34.5087004,
      "lon": -93.0485125,
      "start_date": "",
      "website": "https://www.umbchs.com/",
      "phone": "+1 501-623-4154",
      "opening_hours": "",
      "building": "",
      "wikidata": ""
    },
    {
      "osm_id": 624818376,
      "osm_type": "node",
      "name": "Unnamed",
      "denomination_raw": "",
      "religion": "christian",
      "addr_housenumber": "",
      "addr_street": "",
      "addr_city": "",
      "address": "",
      "lat": 34.4637499,
      "lon": -93.0629213,
      "start_date": "",
      "website": "",
      "phone": "",
      "opening_hours": "",
      "building": "",
      "wikidata": ""
    },
    {
      "osm_id": 5862064627,
      "osm_type": "node",
      "name": "Oaklawn Baptist Church",
      "denomination_raw": "baptist",
      "religion": "christian",
      "addr_housenumber": "200",
      "addr_street": "Oaklawn Street",
      "addr_city": "Hot Springs",
      "address": "200 Oaklawn Street",
      "lat": 34.4843225,
      "lon": -93.062889,
      "start_date": "",
      "website": "https://oaklawnbaptist.com/",
      "phone": "+1-501-623-6813",
      "opening_hours": "",
      "building": "",
      "wikidata": ""
    },
    {
      "osm_id": 9322036354,
      "osm_type": "node",
      "name": "United Universal Congregation",
      "denomination_raw": "catholic",
      "religion": "christian",
      "addr_housenumber": "101",
      "addr_street": "Tennessee Street",
      "addr_city": "Hot Springs",
      "address": "101 Tennessee Street",
      "lat": 34.5160555,
      "lon": -93.0352379,
      "start_date": "",
      "website": "",
      "phone": "+1 501-762-7737",
      "opening_hours": "",
      "building": "",
      "wikidata": ""
    },
    {
      "osm_id": 395187367,
      "osm_type": "way",
      "name": "Dorland Memorial Church",
      "denomination_raw": "presbyterian",
      "religion": "christian",
      "addr_housenumber": "",
      "addr_street": "",
      "addr_city": "",
      "address": "",
      "lat": 35.8924977,
      "lon": -82.8285259,
      "start_date": "",
      "website": "",
      "phone": "",
      "opening_hours": "",
      "building": "yes",
      "wikidata": ""
    },
    {
      "osm_id": 395187368,
      "osm_type": "way",
      "name": "First Baptist Church",
      "denomination_raw": "baptist",
      "religion": "christian",
      "addr_housenumber": "",
      "addr_street": "",
      "addr_city": "",
      "address": "",
      "lat": 35.8926116,
      "lon": -82.8289746,
      "start_date": "",
      "website": "",
      "phone": "",
      "opening_hours": "",
      "building": "yes",
      "wikidata": ""
    },
    {
      "osm_id": 395187376,
      "osm_type": "way",
      "name": "Sean Steen Chapel",
      "denomination_raw": "",
      "religion": "christian",
      "addr_housenumber": "",
      "addr_street": "",
      "addr_city": "",
      "address": "",
      "lat": 35.8918867,
      "lon": -82.8270981,
      "start_date": "",
      "website": "",
      "phone": "",
      "opening_hours": "",
      "building": "yes",
      "wikidata": ""
    },
    {
      "osm_id": 423267002,
      "osm_type": "way",
      "name": "Unnamed",
      "denomination_raw": "",
      "religion": "christian",
      "addr_housenumber": "",
      "addr_street": "",
      "addr_city": "",
      "address": "",
      "lat": 43.4320796,
      "lon": -103.4732818,
      "start_date": "",
      "website": "",
      "phone": "",
      "opening_hours": "",
      "building": "church",
      "wikidata": ""
    },
    {
      "osm_id": 423267171,
      "osm_type": "way",
      "name": "Unnamed",
      "denomination_raw": "",
      "religion": "christian",
      "addr_housenumber": "",
      "addr_street": "",
      "addr_city": "",
      "address": "",
      "lat": 43.4282988,
      "lon": -103.4888107,
      "start_date": "",
      "website": "",
      "phone": "",
      "opening_hours": "",
      "building": "church",
      "wikidata": ""
    },
    {
      "osm_id": 544685355,
      "osm_type": "way",
      "name": "Unnamed",
      "denomination_raw": "",
      "religion": "christian",
      "addr_housenumber": "",
      "addr_street": "",
      "addr_city": "",
      "address": "",
      "lat": 43.4320764,
      "lon": -103.4795152,
      "start_date": "",
      "website": "",
      "phone": "",
      "opening_hours": "",
      "building": "church",
      "wikidata": ""
    },
    {
      "osm_id": 665428914,
      "osm_type": "way",
      "name": "Hikers Ridge Ministries",
      "denomination_raw": "",
      "religion": "christian",
      "addr_housenumber": "12",
      "addr_street": "North Spring Street",
      "addr_city": "Hot Springs",
      "address": "12 North Spring Street",
      "lat": 35.8929354,
      "lon": -82.8275152,
      "start_date": "",
      "website": "",
      "phone": "",
      "opening_hours": "",
      "building": "yes",
      "wikidata": ""
    },
    {
      "osm_id": 674282523,
      "osm_type": "way",
      "name": "Hot Springs FWB Church",
      "denomination_raw": "baptist",
      "religion": "christian",
      "addr_housenumber": "774",
      "addr_street": "River Road",
      "addr_city": "",
      "address": "774 River Road",
      "lat": 35.899842,
      "lon": -82.8316044,
      "start_date": "",
      "website": "",
      "phone": "",
      "opening_hours": "",
      "building": "yes",
      "wikidata": ""
    },
    {
      "osm_id": 815485041,
      "osm_type": "way",
      "name": "Hope Church",
      "denomination_raw": "presbyterian",
      "religion": "christian",
      "addr_housenumber": "836",
      "addr_street": "Shady Grove Road",
      "addr_city": "Hot Springs",
      "address": "836 Shady Grove Road",
      "lat": 34.4676469,
      "lon": -93.0327408,
      "start_date": "",
      "website": "https://www.hopechurchpca.org/",
      "phone": "",
      "opening_hours": "",
      "building": "yes",
      "wikidata": ""
    },
    {
      "osm_id": 881820609,
      "osm_type": "way",
      "name": "Trinity Lutheran Church",
      "denomination_raw": "lutheran",
      "religion": "christian",
      "addr_housenumber": "",
      "addr_street": "Wall Street",
      "addr_city": "Hot Springs",
      "address": "Wall Street",
      "lat": 47.6096678,
      "lon": -114.6717455,
      "start_date": "",
      "website": "",
      "phone": "",
      "opening_hours": "",
      "building": "yes",
      "wikidata": ""
    },
    {
      "osm_id": 881820617,
      "osm_type": "way",
      "name": "Hot Springs Bible Church",
      "denomination_raw": "",
      "religion": "christian",
      "addr_housenumber": "700",
      "addr_street": "1st Avenue South",
      "addr_city": "Hot Springs",
      "address": "700 1st Avenue South",
      "lat": 47.6071624,
      "lon": -114.6773539,
      "start_date": "",
      "website": "https://hotspringsbiblechurch.com/",
      "phone": "",
      "opening_hours": "",
      "building": "yes",
      "wikidata": ""
    },
    {
      "osm_id": 882155643,
      "osm_type": "way",
      "name": "Sacred Heart Catholic Church",
      "denomination_raw": "roman_catholic",
      "religion": "christian",
      "addr_housenumber": "22",
      "addr_street": "1st Avenue South",
      "addr_city": "Hot Springs",
      "address": "22 1st Avenue South",
      "lat": 47.6072374,
      "lon": -114.6694997,
      "start_date": "",
      "website": "https://diocesehelena.org/parishes/sacred-heart-hot-springs/",
      "phone": "+1 406-826-3668",
      "opening_hours": "",
      "building": "church",
      "wikidata": ""
    },
    {
      "osm_id": 925907363,
      "osm_type": "way",
      "name": "Christ Anglican Church",
      "denomination_raw": "anglican",
      "religion": "christian",
      "addr_housenumber": "504",
      "addr_street": "Trivista Left Street",
      "addr_city": "Hot Springs",
      "address": "504 Trivista Left Street",
      "lat": 34.4897411,
      "lon": -93.051928,
      "start_date": "",
      "website": "",
      "phone": "",
      "opening_hours": "",
      "building": "yes",
      "wikidata": ""
    },
    {
      "osm_id": 952737847,
      "osm_type": "way",
      "name": "Charity Heights Baptist Church",
      "denomination_raw": "",
      "religion": "",
      "addr_housenumber": "",
      "addr_street": "",
      "addr_city": "Hot Springs",
      "address": "",
      "lat": 34.4752758,
      "lon": -93.0795708,
      "start_date": "",
      "website": "",
      "phone": "",
      "opening_hours": "",
      "building": "",
      "wikidata": ""
    },
    {
      "osm_id": 1028762116,
      "osm_type": "way",
      "name": "Saint John Catholic Church",
      "denomination_raw": "roman_catholic",
      "religion": "christian",
      "addr_housenumber": "589",
      "addr_street": "West Grand Avenue",
      "addr_city": "Hot Springs",
      "address": "589 West Grand Avenue",
      "lat": 34.5019691,
      "lon": -93.061622,
      "start_date": "",
      "website": "",
      "phone": "+1 501-623-6201",
      "opening_hours": "",
      "building": "yes",
      "wikidata": ""
    },
    {
      "osm_id": 1028763911,
      "osm_type": "way",
      "name": "Saint Mary of the Springs Catholic Church",
      "denomination_raw": "roman_catholic",
      "religion": "christian",
      "addr_housenumber": "100",
      "addr_street": "Central Avenue",
      "addr_city": "Hot Springs",
      "address": "100 Central Avenue",
      "lat": 34.5182132,
      "lon": -93.0563366,
      "start_date": "",
      "website": "",
      "phone": "+1 501-623-3233",
      "opening_hours": "",
      "building": "yes",
      "wikidata": ""
    },
    {
      "osm_id": 1029175617,
      "osm_type": "way",
      "name": "City Life Church of Hot Springs",
      "denomination_raw": "nondenominational",
      "religion": "christian",
      "addr_housenumber": "1555",
      "addr_street": "East Grand Avenue",
      "addr_city": "Hot Springs",
      "address": "1555 East Grand Avenue",
      "lat": 34.5199851,
      "lon": -93.0250766,
      "start_date": "",
      "website": "",
      "phone": "",
      "opening_hours": "",
      "building": "yes",
      "wikidata": ""
    },
    {
      "osm_id": 1029175618,
      "osm_type": "way",
      "name": "Immanuel Christian Fellowship",
      "denomination_raw": "",
      "religion": "christian",
      "addr_housenumber": "1536",
      "addr_street": "East Grand Avenue",
      "addr_city": "Hot Springs",
      "address": "1536 East Grand Avenue",
      "lat": 34.5182136,
      "lon": -93.026845,
      "start_date": "",
      "website": "",
      "phone": "",
      "opening_hours": "",
      "building": "yes",
      "wikidata": ""
    },
    {
      "osm_id": 1092188390,
      "osm_type": "way",
      "name": "Unnamed",
      "denomination_raw": "jehovahs_witness",
      "religion": "christian",
      "addr_housenumber": "",
      "addr_street": "",
      "addr_city": "",
      "address": "",
      "lat": 43.4178279,
      "lon": -103.4856699,
      "start_date": "",
      "website": "",
      "phone": "",
      "opening_hours": "",
      "building": "yes",
      "wikidata": ""
    },
    {
      "osm_id": 1117807950,
      "osm_type": "way",
      "name": "First United Methodist Church",
      "denomination_raw": "united_methodist",
      "religion": "christian",
      "addr_housenumber": "1100",
      "addr_street": "Central Avenue",
      "addr_city": "Hot Springs",
      "address": "1100 Central Avenue",
      "lat": 34.5049841,
      "lon": -93.0555555,
      "start_date": "",
      "website": "https://www.fumchs.com/",
      "phone": "+1-501-623-6668",
      "opening_hours": "",
      "building": "yes",
      "wikidata": ""
    },
    {
      "osm_id": 1150242601,
      "osm_type": "way",
      "name": "Unnamed",
      "denomination_raw": "jehovahs_witness",
      "religion": "christian",
      "addr_housenumber": "",
      "addr_street": "",
      "addr_city": "",
      "address": "",
      "lat": 34.5094004,
      "lon": -93.0113326,
      "start_date": "",
      "website": "",
      "phone": "",
      "opening_hours": "",
      "building": "yes",
      "wikidata": ""
    },
    {
      "osm_id": 1175781390,
      "osm_type": "way",
      "name": "Unnamed",
      "denomination_raw": "",
      "religion": "christian",
      "addr_housenumber": "",
      "addr_street": "",
      "addr_city": "",
      "address": "",
      "lat": 43.4291309,
      "lon": -103.4674129,
      "start_date": "",
      "website": "",
      "phone": "",
      "opening_hours": "",
      "building": "church",
      "wikidata": ""
    }
  ]
}